[{"branch_name": "Libertex", "facade_image": "default.jpg", "longitude": 23.89104253991066, "latitude": 58.54778318963642}, {"branch_name": "Epam", "facade_image": "default.jpg", "longitude": 57.52018869063906, "latitude": 77.14313441710084}, {"branch_name": "Google", "facade_image": "default.jpg", "longitude": 34.6843136000717, "latitude": 28.13026120724036}, {"branch_name": "Yandex", "facade_image": "default.jpg", "longitude": 47.83173862051774, "latitude": 34.53364721629089}, {"branch_name": "Gismart", "facade_image": "default.jpg", "longitude": 14.528429730013865, "latitude": 63.12004100133077}, {"branch_name": "Innovise", "facade_image": "default.jpg", "longitude": 56.940236031881284, "latitude": 60.28826433441686}, {"branch_name": "PandaDoc", "facade_image": "default.jpg", "longitude": 29.900176052621987, "latitude": 70.75760122175669}, {"branch_name": "ITechArt", "facade_image": "default.jpg", "longitude": 58.1271169287621, "latitude": 9.29349116190136}, {"branch_name": "Itransition", "facade_image": "default.jpg", "longitude": 16.111427471250998, "latitude": 1.9713129965843557}, {"branch_name": "Aras", "facade_image": "default.jpg", "longitude": 78.46275612009352, "latitude": 19.058312250542606}]